{"data":{"allContentfulDirector":{"group":[{"fieldValue":"alexandrovskaya","nodes":[{"lng":"en","directorData":{"name":"Larisa Pompeevna Alexandrovskaya","city":"Minsk"}},{"lng":"by","directorData":{"name":"Ларыса Пампееўна Александроўская","city":"Мінск"}},{"lng":"ru","directorData":{"name":"Лариса Помпеевна Александровская","city":"Минск"}}]},{"fieldValue":"dopkynas","nodes":[{"lng":"ru","directorData":{"name":"Вадим Вячеславович Допкюнас","city":"Анадырь"}},{"lng":"en","directorData":{"name":"Vadim Vyacheslavovich Dopkynas","city":"Anadyr"}},{"lng":"by","directorData":{"name":"Вадзім Вячаслававіч Дапкюнас","city":"Анадыр"}}]},{"fieldValue":"gartsuev","nodes":[{"lng":"en","directorData":{"name":"Alexander Fedorovich Gartsuev","city":"Minsk"}},{"lng":"by","directorData":{"name":"Аляксандр Фёдаравіч Гарцуеў","city":"Мінск"}},{"lng":"ru","directorData":{"name":"Александр Федорович Гарцуев","city":"Минск"}}]},{"fieldValue":"mirovich","nodes":[{"lng":"ru","directorData":{"name":"Евстигней Афиногенович Мирович","city":"Санкт-Петербург"}},{"lng":"en","directorData":{"name":"Evstigney Afinogenovich Mirovich","city":"St. Petersburg"}},{"lng":"by","directorData":{"name":"Еўсцігней Афінагенавіч Міровіч","city":"Санкт-Пецярбург"}}]},{"fieldValue":"pinigin","nodes":[{"lng":"ru","directorData":{"name":"Николай Николаевич Пинигин","city":"Изюм"}},{"lng":"en","directorData":{"name":"Nikolay Nikolaevich Pinigin","city":"Izyum"}},{"lng":"by","directorData":{"name":"Мікалай Мікалаевіч Пінігін","city":"Ізюм"}}]},{"fieldValue":"shmakov","nodes":[{"lng":"ru","directorData":{"name":"Фёдор Иванович Шма́ков","city":"Витебск"}},{"lng":"en","directorData":{"name":"Fyodor Ivanovich Shmakov","city":"Vitebsk"}},{"lng":"by","directorData":{"name":"Фёдар Іванавіч Шмакаў","city":"Віцебск"}}]}]}}}